     2.11           OBSERVATION DATA    M (MIXED)           RINEX VERSION / TYPE
CONVBIN 2.4.3                           20190416 101342 UTC PGM / RUN BY / DATE 
log: ../ubx/2019-0217-230342.ubx                            COMMENT             
format: u-blox                                              COMMENT             
                                                            MARKER NAME         
                                                            MARKER NUMBER       
                                                            OBSERVER / AGENCY   
                                                            REC # / TYPE / VERS 
                                                            ANT # / TYPE        
  4207670.7273   153730.1255  4775103.0232                  APPROX POSITION XYZ 
        1.0000        2.0000        3.0000                  ANTENNA: DELTA H/E/N
     1     1                                                WAVELENGTH FACT L1/2
     4    C1    L1    C2    L2                              # / TYPES OF OBSERV 
  2019     2    18    11    49   48.9910000     GPS         TIME OF FIRST OBS   
  2019     2    18    11    55    4.9920000     GPS         TIME OF LAST OBS    
                                                            END OF HEADER       
 19  2 18 11 49 48.9910000  0  3G24G 5G15
  19898066.974   104565047.1602                                 
  21438527.005   112660218.6871                                 
  18011690.990    94652074.1211                                 
 19  2 18 11 49 49.9910000  0  3G24G 5G15
  19897558.549   104562375.0612                                 
  21439265.703   112664099.855                                  
  18011505.629    94651101.199                                  
 19  2 18 11 49 50.9910000  0  3G24G 5G15
  19897050.067   104559703.1702                                 
  21440004.419   112667981.143                                  
  18011320.408    94650128.843                                  
 19  2 18 11 49 51.9910000  0  3G24G 5G15
  19896541.603   104557031.7282                                 
  21440742.864   112671862.699                                  
  18011135.248    94649157.104                                  
 19  2 18 11 49 52.9910000  0  3G24G 5G15
  19896033.029   104554360.5312                                 
  21441481.444   112675744.346                                  
  18010950.398    94648185.891                                  
 19  2 18 11 49 53.9910000  0  3G24G 5G15
  19895524.766   104551689.4432                                 
  21442219.855   112679626.021                                  
  18010765.744    94647215.162                                  
 19  2 18 11 49 54.9910000  0  3G24G 5G15
  19895016.458   104549018.2361                                 
  21442958.392   112683507.843                                  
  18010581.043    94646244.999                                  
 19  2 18 11 49 55.9910000  0  3G24G 5G15
  19894507.985   104546348.073                                  
  21443697.081   112687390.030                                  
  18010396.506    94645275.593                                  
 19  2 18 11 49 56.9910000  0  3G24G 5G15
  19894000.000   104543678.401                                  
  21444435.888   112691272.591                                  
  18010212.141    94644307.023                                  
 19  2 18 11 49 57.9910000  0  3G24G 5G15
  19893491.894   104541008.563                                  
  21445174.560   112695154.852                                  
  18010027.866    94643338.515                                  
 19  2 18 11 49 58.9910000  0  3G24G 5G15
  19892983.626   104538339.021                                  
  21445913.281   112699037.206                                  
  18009845.315    94642370.562                                  
 19  2 18 11 49 59.9910000  0  3G24G 5G15
  19892475.641   104535670.279                                  
  21446652.158   112702920.272                                  
  18009660.386    94641403.722                                  
 19  2 18 11 50  0.9910000  0  3G24G 5G15
  19891967.979   104533002.035                                  
  21447390.995   112706803.691                                  
  18009476.365    94640437.670                                  
 19  2 18 11 50  1.9910000  0  3G24G 5G15
  19891460.200   104530334.272                                  
  21448130.178   112710687.386                                  
  18009292.588    94639472.342                                  
 19  2 18 11 50  2.9910000  0  3G24G 5G15
  19890952.826   104527666.795                                  
  21448869.217   112714571.212                                  
  18009109.666    94638507.558                                  
 19  2 18 11 50  3.9910000  0  4G24G 5G15C25
  19890445.108   104524999.403                                  
  21449608.259   112718455.031                                  
  18008926.169    94637543.136                                  
                 100708456.701    19340006.430   100708456.701  
 19  2 18 11 50  4.9910000  0  4G24G 5G15C25
  19889937.559   104522332.184                                  
  21450347.368   112722338.771                                  
  18008742.645    94636579.097                                  
                 100707553.319    19339832.883   100707553.319  
 19  2 18 11 50  5.9910000  0  4G24G 5G15C25
  19889429.775   104519665.168                                  
  21451086.511   112726222.592                                  
  18008559.308    94635615.585                                  
                 100706650.261    19339659.288   100706650.261  
 19  2 18 11 50  6.9910000  0  4G24G 5G15C25
  19888922.402   104516998.112                                  
  21451825.179   112730106.183                                  
  18008375.832    94634652.225                                  
                 100705747.283    19339485.550   100705747.283  
 19  2 18 11 50  7.9910000  0  4G24G 5G15C25
  19888414.740   104514331.140                                  
  21452564.222   112733989.743                                  
  18008192.762    94633689.236                                  
                 100704844.551    19339312.487   100704844.551  
 19  2 18 11 50  8.9910000  0  4G24G 5G15C25
  19887907.052   104511664.205                                  
  21453303.230   112737873.152                                  
  18008009.478    94632726.601                                  
                 100703941.959    19339139.102   100703941.959  
 19  2 18 11 50  9.9910000  0  4G24G 5G15C25
  19887399.578   104508997.934                                  
  21454042.190   112741757.108                                  
  18007826.172    94631764.866                                  
                 100703040.198    19338965.738   100703040.198  
 19  2 18 11 50 10.9910000  0  4G24G 5G15C25
  19886892.060   104506331.692                                  
  21454781.224   112745640.988                                  
  18007643.102    94630803.481                                  
                 100702138.555    19338792.654   100702138.555  
 19  2 18 11 50 11.9910000  0  4G24G 5G15C25
  19886384.804   104503665.820                                  
  21455520.411   112749524.993                                  
  18007460.346    94629842.704                                  
                 100701237.411    19338619.548   100701237.411  
 19  2 18 11 50 12.9910000  0  4G24G 5G15C25
  19885877.866   104501000.595                                  
  21456259.554   112753409.518                                  
  18007277.856    94628882.774                                  
                 100700337.026    19338446.437   100700337.026  
 19  2 18 11 50 13.9910000  0  3G24G 5G15
  19885370.981   104498335.620                                  
  21456998.907   112757294.081                                  
  18007095.130    94627923.307                                  
 19  2 18 11 50 14.9910000  0  3G24G 5G15
  19884863.498   104495670.246                                  
  21457738.028   112761178.182                                  
  18006912.618    94626963.893                                  
 19  2 18 11 50 15.9910000  0  3G24G 5G15
  19884356.190   104493004.943                                  
  21458477.053   112765062.078                                  
  18006730.076    94626004.691                                  
 19  2 18 11 50 16.9910000  0  3G24G 5G15
  19883848.956   104490339.626                                  
  21459216.210   112768945.866                                  
  18006547.726    94625045.752                                  
 19  2 18 11 50 17.9910000  0  3G24G 5G15
  19883341.722   104487674.754                                  
  21459954.969   112772829.917                                  
  18006365.375    94624087.499                                  
 19  2 18 11 50 18.9910000  0  3G24G 5G15
  19882834.570   104485010.305                                  
  21460694.099   112776714.302                                  
  18006182.938    94623130.029                                  
 19  2 18 11 50 19.9910000  0  4G24G 5G15C25
  19882327.650   104482346.105                                  
  21461433.312   112780598.725                                  
  18006000.583    94622173.008                                  
                 100694035.6931   19337237.032   100694035.6931 
 19  2 18 11 50 20.9910000  0  4G24G 5G15C25
  19881820.839   104479682.095                                  
  21462172.730   112784483.127                                  
  18005818.712    94621216.456                                  
                 100693137.453    19337064.598   100693137.453  
 19  2 18 11 50 21.9910000  0  4G24G 5G15C25
  19881313.954   104477018.399                                  
  21462912.000   112788367.812                                  
  18005636.663    94620260.465                                  
                 100692239.681    19336891.989   100692239.681  
 19  2 18 11 50 22.9910000  0  4G24G 5G15C25
  19880807.012   104474355.163                                  
  21463651.274   112792252.665                                  
  18005454.845    94619305.170                                  
                 100691342.462    19336719.773   100691342.462  
 19  2 18 11 50 23.9910000  0  4G24G 5G15C25
  19880300.253   104471692.154                                  
  21464390.470   112796137.659                                  
  18005272.948    94618350.451                                  
                 100690445.648    19336547.574   100690445.648  
 19  2 18 11 50 24.9910000  0  4G24G 5G15C25
  19879793.687   104469029.315                                  
  21465129.801   112800022.723                                  
  18005091.213    94617396.174                                  
                 100689549.121    19336375.506   100689549.121  
 19  2 18 11 50 25.9910000  0  4G24G 5G15C25
  19879287.255   104466366.688                                  
  21465869.096   112803907.826                                  
  18004909.543    94616442.328                                  
                 100688652.910    19336203.412   100688652.910  
 19  2 18 11 50 26.9910000  0  4G24G 5G15C25
  19878780.536   104463704.142                                  
  21466608.379   112807792.811                                  
  18004727.917    94615488.858                                  
                 100687756.922    19336031.414   100687756.922  
 19  2 18 11 50 27.9910000  0  4G24G 5G15C25
  19878273.838   104461041.757                                  
  21467347.610   112811677.739                                  
  18004546.600    94614535.733                                  
                 100686861.152    19335859.412   100686861.152  
 19  2 18 11 50 28.9910000  0  4G24G 5G15C25
  19877767.415   104458379.448                                  
  21468086.871   112815562.555                                  
  18004365.340    94613583.003                                  
                 100685965.584    19335687.361   100685965.584  
 19  2 18 11 50 29.9910000  0  4G24G 5G15C25
  19877260.766   104455716.826                                  
  21468826.010   112819446.995                                  
  18004184.325    94612630.220                                  
                 100685069.846    19335515.407   100685069.846  
 19  2 18 11 50 30.9910000  0  4G24G 5G15C25
  19876754.229   104453054.465                                  
  21469565.018   112823331.559                                  
  18004003.091    94611678.008                                  
                 100684174.533    19335343.370   100684174.533  
 19  2 18 11 50 31.9910000  0  4G24G 5G15C25
  19876247.671   104450392.924                                  
  21470304.305   112827216.731                                  
  18003822.259    94610726.808                                  
                 100683280.109    19335171.625   100683280.109  
 19  2 18 11 50 32.9910000  0  4G24G 5G15C25
  19875741.419   104447731.661                                  
  21471043.684   112831101.997                                  
  18003641.322    94609776.240                                  
                 100682386.109    19334999.814   100682386.109  
 19  2 18 11 50 33.9910000  0  4G24G 5G15C25
  19875235.293   104445070.700                                  
  21471783.150   112834987.447                                  
  18003460.490    94608826.161                                  
                 100681492.498    19334828.396   100681492.498  
 19  2 18 11 50 34.9910000  0  4G24G 5G15C25
  19874729.049   104442409.759                                  
  21472520.941   112838872.813                                  
  18003279.950    94607876.461                                  
                 100680599.093    19334656.839   100680599.093  
 19  2 18 11 50 35.9910000  0  4G24G 5G15C25
  19874222.931   104439748.988                                  
  21473261.502   112842758.138                                  
  18003099.484    94606927.156                                  
                 100679705.965    19334485.587   100679705.965  
 19  2 18 11 50 36.9910000  0  4G24G 5G15C25
  19873716.770   104437088.572                                  
  21473997.552   112846643.607                                  
  18002919.058    94605978.437                                  
                 100678813.249    19334314.212   100678813.249  
 19  2 18 11 50 37.9910000  0  4G24G 5G15C25
  19873210.588   104434428.176                                  
  21474738.580   112850528.964                                  
  18002738.814    94605029.942                                  
                 100677920.676    19334142.974   100677920.676  
 19  2 18 11 50 38.9910000  0  4G24G 5G15C25
  19872704.374   104431767.658                                  
  21475477.980   112854414.032                                  
  18002558.549    94604081.625                                  
                 100677028.118    19333971.948   100677028.118  
 19  2 18 11 50 39.9910000  0  4G24G 5G15C25
  19872198.039   104429107.244                                  
  21476218.397   112858298.974                                  
  18002378.249    94603133.742                                  
                 100676135.782    19333800.714   100676135.782  
 19  2 18 11 50 40.9910000  0  4G24G 5G15C25
  19871691.851   104426446.841                                  
  21476958.954   112862183.959                                  
  18002198.289    94602186.161                                  
                 100675243.635    19333629.353   100675243.635  
 19  2 18 11 50 41.9910000  0  4G24G 5G15C25
  19871185.734   104423786.917                                  
  21477698.582   112866069.067                                  
  18002018.408    94601239.219                                  
                 100674352.006    19333458.445   100674352.006  
 19  2 18 11 50 42.9910000  0  4G24G 5G15C25
  19870679.673   104421127.325                                  
  21478434.802   112869954.427                                  
  18001838.593    94600292.910                                  
                 100673460.873    19333287.263   100673460.873  
 19  2 18 11 50 43.9910000  0  4G24G 5G15C25
  19870173.713   104418467.924                                  
  21479174.997   112873839.877                                  
  18001658.890    94599347.142                                  
                 100672570.099    19333116.334   100672570.099  
 19  2 18 11 50 44.9910000  0  4G24G 5G15C25
  19869667.818   104415808.785                                  
  21479912.478   112877725.368                                  
  18001479.122    94598401.779                                  
                 100671679.610    19332945.400   100671679.610  
 19  2 18 11 50 45.9910000  0  4G24G 5G15C25
  19869161.840   104413150.036                                  
  21480652.027   112881611.121                                  
  18001299.342    94597457.169                                  
                 100670789.713    19332774.794   100670789.713  
 19  2 18 11 50 46.9910000  0  4G24G 5G15C25
  19868655.959   104410491.313                                  
  21481394.542   112885496.666                                  
  18001119.604    94596512.864                                  
                 100669899.956    19332603.825   100669899.956  
 19  2 18 11 50 47.9910000  0  4G24G 5G15C25
  19868149.990   104407832.746                                  
  21482132.167   112889382.370                                  
  18000939.928    94595568.955                                  
                 100669010.499    19332432.935   100669010.499  
 19  2 18 11 50 48.9910000  0  5G24G 5G15E 8C25
  19867644.016   104405174.559                                  
  21482868.322   112893268.167                                  
  18000760.679    94594625.682                                  
  19153965.515   100654778.195                                  
                 100668121.489    19332262.263   100668121.489  
 19  2 18 11 50 49.9910000  0  5G24G 5G15E 8C25
  19867138.435   104402516.902                                  
  21483609.651   112897154.294                                  
  18000581.322    94593683.218                                  
  19154226.479   100656149.737                                  
                 100667233.152    19332091.670   100667233.152  
 19  2 18 11 50 50.9910000  0  5G24G 5G15E 8C25
  19866632.872   104399859.870                                  
  21484348.105   112901040.956                                  
  18000402.016    94592741.641                                  
  19154488.210   100657522.019                                  
                 100666345.557    19331921.255   100666345.557  
 19  2 18 11 50 51.9910000  0  5G24G 5G15E 8C25
  19866127.378   104397203.477                                  
  21485089.831   112904928.093                                  
  18000223.182    94591801.001                                  
  19154748.402   100658895.122                                  
                 100665458.764    19331751.033   100665458.764  
 19  2 18 11 50 52.9910000  0  5G24G 5G15E 8C25
  19865622.077   104394547.430                                  
  21485828.839   112908815.474                                  
  18000044.274    94590860.913                                  
  19155009.937   100660268.650                                  
                 100664572.374    19331581.015   100664572.374  
 19  2 18 11 50 53.9910000  0  5G24G 5G15E 8C25
  19865116.688   104391891.706                                  
  21486569.339   112912702.923                                  
  17999865.379    94589921.438                                  
  19155271.450   100661642.638                                  
                 100663686.421    19331411.098   100663686.421  
 19  2 18 11 50 54.9910000  0  5G24G 5G15E 8C25
  19864611.478   104389236.215                                  
  21487308.308   112916590.451                                  
  17999686.697    94588982.457                                  
  19155533.522   100663017.015                                  
                 100662800.855    19331241.007   100662800.855  
 19  2 18 11 50 55.9910000  0  5G24G 5G15E 8C25
  19864106.006   104386580.965                                  
  21488048.223   112920478.176                                  
  17999508.312    94588044.050                                  
  19155795.297   100664391.773                                  
                 100661915.678    19331071.028   100661915.678  
 19  2 18 11 50 56.9910000  0  5G24G 5G15E 8C25
  19863600.657   104383925.538                                  
  21488787.863   112924365.382                                  
  17999329.827    94587105.649                                  
  19156056.749   100665766.427                                  
                 100661030.385    19330900.850   100661030.385  
 19  2 18 11 50 57.9910000  0  5G24G 5G15E 8C25
  19863095.373   104381269.983                                  
  21489531.299   112928252.359                                  
  17999151.255    94586167.380                                  
  19156318.437   100667141.105                                  
                 100660145.100    19330730.745   100660145.100  
 19  2 18 11 50 58.9910000  0  5G24G 5G15E 8C25
  19862589.988   104378614.375                                  
  21490267.978   112932139.136                                  
  17998973.022    94585229.355                                  
  19156580.360   100668515.855                                  
                 100659259.883    19330560.627   100659259.883  
 19  2 18 11 50 59.9910000  0  5G24G 5G15E 8C25
  19862084.582   104375958.992                                  
  21491006.144   112936025.943                                  
  17998794.533    94584291.822                                  
  19156842.410   100669890.958                                  
                 100658375.007    19330390.365   100658375.007  
 19  2 18 11 51  0.9910000  0  5G24G 5G15E 8C25
  19861579.511   104373304.244                                  
  21491747.377   112939913.249                                  
  17998616.222    94583355.207                                  
  19157104.334   100671266.857                                  
                 100657490.901    19330220.697   100657490.901  
 19  2 18 11 51  1.9910000  0  5G24G 5G15E 8C25
  19861074.367   104370650.365                                  
  21492487.955   112943801.238                                  
  17998438.016    94582419.718                                  
  19157365.991   100672643.712                                  
                 100656607.768    19330051.072   100656607.768  
 19  2 18 11 51  2.9910000  0  5G24G 5G15E 8C25
  19860569.262   104367996.477                                  
  21493226.073   112947689.075                                  
  17998259.989    94581484.447                                  
  19157628.106   100674020.690                                  
                 100655724.723    19329881.425   100655724.723  
 19  2 18 11 51  3.9910000  0  5G24G 5G15E 8C25
  19860064.139   104365342.755                                  
  21493963.271   112951576.925                                  
  17998081.910    94580549.648                                  
  19157890.453   100675398.003                                  
                 100654842.000    19329711.962   100654842.000  
 19  2 18 11 51  4.9910000  0  5G24G 5G15E 8C25
  19859559.435   104362689.677                                  
  21494706.367   112955465.189                                  
  17997904.140    94579615.733                                  
  19158152.756   100676776.024                                  
                 100653959.982    19329542.481   100653959.982  
 19  2 18 11 51  5.9910000  0  5G24G 5G15E 8C25
  19859054.447   104360036.629                                  
  21495448.018   112959353.375                                  
  17997726.436    94578682.068                                  
  19158414.902   100678154.228                                  
                 100653078.135    19329373.135   100653078.135  
 19  2 18 11 51  6.9910000  0  5G24G 5G15E 8C25
  19858549.517   104357383.631                                  
  21496185.901   112963241.415                                  
  17997548.740    94577748.845                                  
  19158676.864   100679532.680                                  
                 100652196.521    19329203.624   100652196.521  
 19  2 18 11 51  7.9910000  0  5G24G 5G15E 8C25
  19858044.778   104354730.840                                  
  21496925.419   112967129.593                                  
  17997371.258    94576816.031                                  
  19158939.669   100680911.450                                  
                 100651315.221    19329034.256   100651315.221  
 19  2 18 11 51  8.9910000  0  5G24G 5G15E 8C25
  19857540.017   104352078.216                                  
  21497665.439   112971017.710                                  
  17997193.816    94575883.641                                  
  19159202.304   100682290.457                                  
                 100650434.146    19328865.160   100650434.146  
 19  2 18 11 51  9.9910000  0  5G24G 5G15E 8C25
  19857035.104   104349426.117                                  
  21498405.368   112974906.205                                  
  17997016.609    94574952.012                                  
  19159464.685   100683670.117                                  
                 100649553.732    19328696.015   100649553.732  
 19  2 18 11 51 10.9910000  0  5G24G 5G15E 8C25
  19856530.579   104346774.414                                  
  21499145.218   112978794.907                                  
  17996839.476    94574021.090                                  
  19159727.258   100685050.363                                  
                 100648673.858    19328527.197   100648673.858  
 19  2 18 11 51 11.9910000  0  5G24G 5G15E 8C25
  19856026.202   104344122.994                                  
  21499885.329   112982683.698                                  
  17996662.443    94573090.670                                  
  19159989.932   100686430.979                                  
                 100647794.368    19328358.462   100647794.368  
 19  2 18 11 51 12.9910000  0  5G24G 5G15E 8C25
  19855521.738   104341471.937                                  
  21500625.428   112986572.688                                  
  17996485.729    94572160.930                                  
  19160252.619   100687812.107                                  
                 100646915.356    19328189.531   100646915.356  
 19  2 18 11 51 13.9910000  0  5G24G 5G15E 8C25
  19855017.257   104338821.475                                  
  21501365.597   112990462.185                                  
  17996308.906    94571232.055                                  
  19160515.559   100689193.944                                  
                 100646037.036    19328021.088   100646037.036  
 19  2 18 11 51 14.9910000  0  5G24G 5G15E 8C25
  19854513.102   104336170.969                                  
  21502105.813   112994351.385                                  
  17996132.188    94570303.336                                  
  19160778.599   100690575.861                                  
                 100645158.790    19327852.170   100645158.790  
 19  2 18 11 51 15.9910000  0  5G24G 5G15E 8C25
  19854008.586   104333520.544                                  
  21502845.977   112998240.570                                  
  17995955.731    94569375.069                                  
  19161041.478   100691958.029                                  
                 100644280.822    19327683.575   100644280.822  
 19  2 18 11 51 16.9910000  0  5G24G 5G15E 8C25
  19853504.188   104330871.007                                  
  21503586.372   113002130.378                                  
  17995779.410    94568447.874                                  
  19161304.649   100693341.148                                  
                 100643403.781    19327514.870   100643403.781  
 19  2 18 11 51 17.9910000  0  5G24G 5G15E 8C25
  19852999.977   104328221.923                                  
  21504326.850   113006020.578                                  
  17995603.281    94567521.465                                  
  19161567.947   100694724.947                                  
                 100642527.364    19327346.519   100642527.364  
 19  2 18 11 51 18.9910000  0  5G24G 5G15E 8C25
  19852495.526   104325572.858                                  
  21505067.076   113009910.584                                  
  17995427.199    94566595.306                                  
  19161831.428   100696108.853                                  
                 100641651.053    19327178.251   100641651.053  
 19  2 18 11 51 19.9910000  0  5G24G 5G15E 8C25
  19851991.428   104322923.401                                  
  21505806.524   113013800.105                                  
  17995250.887    94565669.054                                  
  19162094.677   100697492.495                                  
                 100640774.508    19327009.892   100640774.508  
 19  2 18 11 51 20.9910000  0  5G24G 5G15E 8C25
  19851487.156   104320273.960                                  
  21506546.296   113017689.392                                  
  17995074.543    94564743.052                                  
  19162357.879   100698876.269                                  
                 100639898.058    19326841.584   100639898.058  
 19  2 18 11 51 21.9910000  0  5G24G 5G15E 8C25
  19850983.059   104317625.121                                  
  21507287.812   113021579.082                                  
  17994898.405    94563817.858                                  
  19162621.211   100700260.744                                  
                 100639022.322    19326673.329   100639022.322  
 19  2 18 11 51 22.9910000  0  5G24G 5G15E 8C25
  19850479.122   104314976.442                                  
  21508027.204   113025468.859                                  
  17994722.516    94562893.176                                  
  19162884.640   100701645.584                                  
                 100638146.920    19326505.170   100638146.920  
 19  2 18 11 51 23.9910000  0  5G24G 5G15E 8C25
  19849974.829   104312328.075                                  
  21508767.080   113029358.705                                  
  17994546.696    94561969.084                                  
  19163148.221   100703030.812                                  
                 100637271.907    19326337.125   100637271.907  
 19  2 18 11 51 24.9910000  0  5G24G 5G15E 8C25
  19849470.709   104309680.091                                  
  21509508.195   113033248.857                                  
  17994371.020    94561045.617                                  
  19163412.042   100704416.601                                  
                 100636397.421    19326168.957   100636397.421  
 19  2 18 11 51 25.9910000  0  5G24G 5G15E 8C25
  19848966.891   104307032.276                                  
  21510248.137   113037138.970                                  
  17994195.458    94560122.595                                  
  19163675.763   100705802.664                                  
                 100635523.224    19326001.134   100635523.224  
 19  2 18 11 51 26.9910000  0  5G24G 5G15E 8C25
  19848463.151   104304384.997                                  
  21510987.542   113041029.406                                  
  17994019.852    94559200.352                                  
  19163939.501   100707189.366                                  
                 100634649.661    19325832.970   100634649.661  
 19  2 18 11 51 27.9910000  0  5G24G 5G15E 8C25
  19847959.259   104301737.729                                  
  21511728.421   113044919.778                                  
  17993844.355    94558278.397                                  
  19164203.261   100708576.255                                  
                 100633776.239    19325665.217   100633776.239  
 19  2 18 11 51 28.9910000  0  5G24G 5G15E 8C25
  19847455.663   104299090.930                                  
  21512468.895   113048810.419                                  
  17993668.981    94557357.222                                  
  19164467.191   100709963.748                                  
                 100632903.415    19325497.656   100632903.415  
 19  2 18 11 51 29.9910000  0  5G24G 5G15E 8C25
  19846951.936   104296444.303                                  
  21513209.225   113052701.033                                  
  17993493.650    94556436.451                                  
  19164731.043   100711351.506                                  
                 100632030.860    19325330.012   100632030.860  
 19  2 18 11 51 30.9910000  0  5G24G 5G15E 8C25
  19846448.371   104293797.300                                  
  21513949.524   113056591.190                                  
  17993318.345    94555515.644                                  
  19164995.052   100712739.085                                  
                 100631158.105    19325162.529   100631158.105  
 19  2 18 11 51 31.9910000  0  5G24G 5G15E 8C25
  19845944.788   104291150.420                                  
  21514691.084   113060481.190                                  
  17993143.118    94554595.119                                  
  19165259.335   100714126.878                                  
                 100630285.570    19324995.072   100630285.570  
 19  2 18 11 51 32.9910000  0  5G24G 5G15E 8C25
  19845441.218   104288503.927                                  
  21515429.713   113064371.521                                  
  17992967.936    94553675.320                                  
  19165523.514   100715515.181                                  
                 100629413.551    19324827.820   100629413.551  
 19  2 18 11 51 33.9910000  0  5G24G 5G15E 8C25
  19844937.518   104285857.492                                  
  21516169.921   113068261.604                                  
  17992792.810    94552755.787                                  
  19165787.641   100716903.631                                  
                 100628541.660    19324660.521   100628541.660  
 19  2 18 11 51 34.9910000  0  5G24G 5G15E 8C25
  19844434.101   104283211.122                                  
  21516910.560   113072151.677                                  
  17992617.819    94551836.593                                  
  19166051.872   100718292.323                                  
                 100627669.992    19324493.204   100627669.992  
 19  2 18 11 51 35.9910000  0  5G24G 5G15E 8C25
  19843930.483   104280564.952                                  
  21517650.593   113076041.780                                  
  17992442.846    94550917.895                                  
  19166316.003   100719681.354                                  
                 100626798.646    19324325.861   100626798.646  
 19  2 18 11 51 36.9910000  0  5G24G 5G15E 8C25
  19843427.071   104277919.411                                  
  21518389.222   113079932.353                                  
  17992268.138    94550000.072                                  
  19166580.483   100721071.101                                  
                 100625928.014    19324158.478   100625928.014  
 19  2 18 11 51 37.9910000  0  5G24G 5G15E 8C25
  19842923.628   104275274.051                                  
  21519131.986   113083822.963                                  
  17992093.627    94549082.750                                  
  19166845.159   100722461.216                                  
                 100625057.710    19323991.344   100625057.710  
 19  2 18 11 51 38.9910000  0  5G24G 5G15E 8C25
  19842420.564   104272629.204                                  
  21519870.728   113087713.801                                  
  17991919.335    94548166.130                                  
  19167109.783   100723851.912                                  
                 100624188.027    19323824.319   100624188.027  
 19  2 18 11 51 39.9910000  0  5G24G 5G15E 8C25
  19841917.361   104269984.819                                  
  21520611.075   113091604.986                                  
  17991745.225    94547250.273                                  
  19167374.489   100725243.241                                  
                 100623318.948    19323657.168   100623318.948  
 19  2 18 11 51 40.9910000  0  5G24G 5G15E 8C25
  19841414.345   104267340.380                                  
  21521351.929   113095495.971                                  
  17991570.871    94546334.658                                  
  19167639.244   100726634.645                                  
                 100622449.918    19323490.366   100622449.918  
 19  2 18 11 51 41.9910000  0  5G24G 5G15E 8C25
  19840911.216   104264696.538                                  
  21522092.991   113099387.356                                  
  17991396.661    94545419.870                                  
  19167904.108   100728026.773                                  
                 100621581.594    19323323.420   100621581.594  
 19  2 18 11 51 42.9910000  0  5G24G 5G15E 8C25
  19840408.131   104262052.692                                  
  21522836.410   113103278.630                                  
  17991222.495    94544505.386                                  
  19168169.006   100729419.063                                  
                 100620713.429    19323156.709   100620713.429  
 19  2 18 11 51 43.9910000  0  6G24G 5G15E 8E30C25
  19839904.888   104259408.982                                  
  21523574.192   113107169.819                                  
  17991048.647    94543591.290                                  
  19168433.931   100730811.558                                  
  20575382.341   108124374.084                                  
                 100619845.488    19322990.164   100619845.488  
 19  2 18 11 51 44.9910000  0  6G24G 5G15E 8E30C25
  19839401.733   104256765.521                                  
  21524314.011   113111061.191                                  
  17990874.944    94542677.743                                  
  19168699.083   100732204.502                                  
  20575004.335   108122385.092                                  
                 100618977.938    19322823.475   100618977.938  
 19  2 18 11 51 45.9910000  0  6G24G 5G15E 8E30C25
  19838898.783   104254122.012                                  
  21525056.662   113114952.128                                  
  17990701.087    94541764.369                                  
  19168964.226   100733597.441                                  
  20574625.120   108120395.979                                  
                 100618110.406    19322657.035   100618110.406  
 19  2 18 11 51 46.9910000  0  6G24G 5G15E 8E30C25
  19838395.628   104251478.397                                  
  21525798.275   113118842.918                                  
  17990527.326    94540851.093                                  
  19169228.911   100734990.364                                  
  20574250.577   108118406.820                                  
                 100617242.838    19322490.477   100617242.838  
 19  2 18 11 51 47.9910000  0  6G24G 5G15E 8E30C25
  19837892.411   104248834.948                                  
  21526537.680   113122733.597                                  
  17990353.627    94539938.279                                  
  19169494.185   100736383.639                                  
  20573874.228   108116417.847                                  
                 100616375.628    19322323.884   100616375.628  
 19  2 18 11 51 48.9910000  0  6G24G 5G15E 8E30C25
  19837389.461   104246191.736                                  
  21527278.188   113126624.446                                  
  17990179.954    94539025.947                                  
  19169759.476   100737777.249                                  
  20573496.016   108114429.139                                  
                 100615508.721    19322157.405   100615508.721  
 19  2 18 11 51 49.9910000  0  6G24G 5G15E 8E30C25
  19836886.432   104243548.848                                  
  21528018.570   113130515.404                                  
  17990006.464    94538114.231                                  
  19170024.772   100739171.317                                  
  20573116.766   108112440.820                                  
                 100614642.259    19321990.851   100614642.259  
 19  2 18 11 51 50.9910000  0  6G24G 5G15E 8E30C25
  19836383.779   104240906.427                                  
  21528759.053   113134406.599                                  
  17989833.231    94537203.233                                  
  19170290.002   100740565.950                                  
  20572738.337   108110452.948                                  
                 100613776.377    19321824.690   100613776.377  
 19  2 18 11 51 51.9910000  0  6G24G 5G15E 8E30C25
  19835881.239   104238263.835                                  
  21529499.025   113138297.558                                  
  17989659.920    94536292.366                                  
  19170555.319   100741960.591                                  
  20572360.121   108108464.999                                  
                 100612910.476    19321658.285   100612910.476  
 19  2 18 11 51 52.9910000  0  6G24G 5G15E 8E30C25
  19835378.485   104235621.207                                  
  21530238.962   113142188.288                                  
  17989486.766    94535381.710                                  
  19170820.628   100743355.323                                  
  20571981.678   108106477.067                                  
                 100612044.657    19321491.714   100612044.657  
 19  2 18 11 51 53.9910000  0  6G24G 5G15E 8E30C25
  19834875.879   104232978.715                                  
  21530980.527   113146078.976                                  
  17989313.795    94534471.501                                  
  19171086.199   100744750.334                                  
  20571603.414   108104489.307                                  
                 100611179.121    19321325.536   100611179.121  
 19  2 18 11 51 54.9910000  0  6G24G 5G15E 8E30C25
  19834373.108   104230336.363                                  
  21531720.089   113149969.664                                  
  17989140.976    94533561.676                                  
  19171351.765   100746145.591                                  
  20571224.993   108102501.731                                  
                 100610313.824    19321159.466   100610313.824  
 19  2 18 11 51 55.9910000  0  6G24G 5G15E 8E30C25
  19833870.289   104227693.811                                  
  21532460.864   113153860.017                                  
  17988967.910    94532651.928                                  
  19171617.148   100747540.788                                  
  20570846.873   108100513.953                                  
                 100609448.461    19320993.135   100609448.461  
 19  2 18 11 51 56.9910000  0  6G24G 5G15E 8E30C25
  19833367.557   104225051.859                                  
  21533200.474   113157750.741                                  
  17988795.035    94531743.048                                  
  19171882.805   100748936.733                                  
  20570468.988   108098526.877                                  
                 100608583.789    19320827.026   100608583.789  
 19  2 18 11 51 57.9910000  0  6G24G 5G15E 8E30C25
  19832864.977   104222410.169                                  
  21533940.551   113161641.497                                  
  17988622.195    94530834.623                                  
  19172148.437   100750332.998                                  
  20570090.694   108096540.010                                  
                 100607719.467    19320660.979   100607719.467  
 19  2 18 11 51 58.9910000  0  6G24G 5G15E 8E30C25
  19832362.228   104219768.586                                  
  21534681.591   113165532.221                                  
  17988449.433    94529926.658                                  
  19172414.243   100751729.530                                  
  20569712.338   108094553.310                                  
                 100606855.397    19320495.023   100606855.397  
 19  2 18 11 51 59.9910000  0  6G24G 5G15E 8E30C25
  19831859.710   104217127.399                                  
  21535422.091   113169423.235                                  
  17988276.794    94529019.331                                  
  19172680.062   100753126.611                                  
  20569334.379   108092567.104                                  
                 100605991.865    19320329.111   100605991.865  
 19  2 18 11 52  0.9910000  0  6G24G 5G15E 8E30C25
  19831357.231   104214486.285                                  
  21536162.535   113173314.087                                  
  17988104.451    94528112.321                                  
  19172945.781   100754523.862                                  
  20568956.521   108090580.945                                  
                 100605128.513    19320163.268   100605128.513  
 19  2 18 11 52  1.9910000  0  6G24G 5G15E 8E30C25
  19830854.865   104211845.337                                  
  21536903.087   113177205.026                                  
  17987932.100    94527205.828                                  
  19173212.076   100755921.473                                  
  20568578.602   108088595.050                                  
                 100604265.464    19319997.351   100604265.464  
 19  2 18 11 52  2.9910000  0  6G24G 5G15E 8E30C25
  19830352.530   104209204.468                                  
  21537643.522   113181095.732                                  
  17987759.670    94526299.596                                  
  19173478.078   100757319.185                                  
  20568200.573   108086609.188                                  
                 100603402.571    19319831.513   100603402.571  
 19  2 18 11 52  3.9920000  0  6G24G 5G15E 8E30C25
  19829849.453   104206561.056                                  
  21538384.606   113184990.374                                  
  17987587.283    94525392.842                                  
  19173744.360   100758718.626                                  
  20567822.388   108084621.564                                  
                 100602539.079    19319665.605   100602539.079  
 19  2 18 11 52  4.9920000  0  6G24G 5G15E 8E30C25
  19829346.939   104203920.482                                  
  21539125.150   113188881.082                                  
  17987414.797    94524487.502                                  
  19174010.558   100760116.937                                  
  20567444.372   108082636.091                                  
                 100601676.728    19319500.295   100601676.728  
 19  2 18 11 52  5.9920000  0  6G24G 5G15E 8E30C25
  19828844.412   104201280.233                                  
  21539864.799   113192771.989                                  
  17987242.615    94523582.741                                  
  19174276.522   100761515.727                                  
  20567066.553   108080651.042                                  
                 100600814.829    19319334.701   100600814.829  
 19  2 18 11 52  6.9920000  0  6G24G 5G15E 8E30C25
  19828341.920   104198640.501                                  
  21540604.531   113196663.255                                  
  17987070.752    94522678.754                                  
  19174542.807   100762915.153                                  
  20566689.201   108078666.531                                  
                 100599953.564    19319169.478   100599953.564  
 19  2 18 11 52  7.9920000  0  6G24G 5G15E 8E30C25
  19827839.454   104196000.870                                  
  21541345.965   113200554.397                                  
  17986898.658    94521775.160                                  
  19174809.141   100764314.814                                  
  20566311.487   108076682.150                                  
                 100599092.556    19319003.972   100599092.556  
 19  2 18 11 52  8.9920000  0  6G24G 5G15E 8E30C25
  19827337.185   104193361.489                                  
  21542086.487   113204445.645                                  
  17986727.053    94520872.065                                  
  19175075.545   100765714.853                                  
  20565933.690   108074698.065                                  
                 100598231.871    19318838.378   100598231.871  
 19  2 18 11 52  9.9920000  0  6G24G 5G15E 8E30C25
  19826835.033   104190722.718                                  
  21542828.147   113208337.297                                  
  17986555.046    94519969.827                                  
  19175342.041   100767115.625                                  
  20565555.997   108072714.622                                  
                 100597371.927    19318673.225   100597371.927  
 19  2 18 11 52 10.9920000  0  6G24G 5G15E 8E30C25
  19826333.073   104188084.825                                  
  21543568.067   113212229.678                                  
  17986383.785    94519068.717                                  
  19175609.120   100768517.363                                  
  20565178.388   108070732.062                                  
                 100596512.943    19318507.940   100596512.943  
 19  2 18 11 52 11.9920000  0  6G24G 5G15E 8E30C25
  19825831.196   104185447.377                                  
  21544308.515   113216122.310                                  
  17986212.394    94518168.373                                  
  19175875.930   100769919.709                                  
  20564801.214   108068749.989                                  
                 100595654.535    19318342.931   100595654.535  
 19  2 18 11 52 12.9920000  0  6G24G 5G15E 8E30C25
  19825329.454   104182809.717                                  
  21545048.910   113220014.535                                  
  17986041.172    94517268.029                                  
  19176142.569   100771321.957                                  
  20564424.054   108066767.755                                  
                 100594796.056    19318178.275   100594796.056  
 19  2 18 11 52 13.9920000  0  6G24G 5G15E 8E30C25
  19824827.560   104180172.019                                  
  21545788.454   113223906.575                                  
  17985870.086    94516367.947                                  
  19176409.379   100772724.289                                  
  20564047.155   108064785.494                                  
                 100593937.611    19318013.537   100593937.611  
 19  2 18 11 52 14.9920000  0  6G24G 5G15E 8E30C25
  19824325.569   104177534.343                                  
  21546530.425   113227798.463                                  
  17985698.699    94515468.148                                  
  19176676.389   100774126.774                                  
  20563670.030   108062803.334                                  
                 100593079.336    19317848.863   100593079.336  
 19  2 18 11 52 15.9920000  0  6G24G 5G15E 8E30C25
  19823823.548   104174897.184                                  
  21547269.529   113231690.677                                  
  17985527.730    94514569.145                                  
  19176943.220   100775529.934                                  
  20563293.162   108060821.713                                  
                 100592221.723    19317684.002   100592221.723  
 19  2 18 11 52 16.9920000  0  6G24G 5G15E 8E30C25
  19823321.580   104172259.923                                  
  21548012.197   113235582.656                                  
  17985356.801    94513670.251                                  
  19177210.091   100776933.065                                  
  20562916.124   108058839.974                                  
                 100591364.041    19317519.277   100591364.041  
 19  2 18 11 52 17.9920000  0  6G24G 5G15E 8E30C25
  19822819.576   104169622.989                                  
  21548751.340   113239474.703                                  
  17985185.928    94512771.931                                  
  19177477.101   100778336.623                                  
  20562539.400   108056858.646                                  
                 100590506.810    19317355.000   100590506.810  
 19  2 18 11 52 18.9920000  0  6G24G 5G15E 8E30C25
  19822317.634   104166986.531                                  
  21549492.219   113243367.129                                  
  17985015.448    94511874.450                                  
  19177744.163   100779740.858                                  
  20562162.436   108054877.838                                  
                 100589650.219    19317190.392   100589650.219  
 19  2 18 11 52 19.9920000  0  6G24G 5G15E 8E30C25
  19821815.897   104164350.647                                  
  21550233.204   113247260.029                                  
  17984844.851    94510977.784                                  
  19178011.614   100781145.778                                  
  20561785.773   108052897.635                                  
                 100588794.320    19317026.212   100588794.320  
 19  2 18 11 52 20.9920000  0  6G24G 5G15E 8E30C25
  19821314.255   104161715.186                                  
  21550974.847   113251152.996                                  
  17984674.515    94510081.754                                  
  19178278.821   100782551.221                                  
  20561409.232   108050917.855                                  
                 100587938.948    19316861.927   100587938.948  
 19  2 18 11 52 21.9920000  0  6G24G 5G15E 8E30C25
  19820812.771   104159079.391                                  
  21551713.767   113255045.506                                  
  17984503.996    94509185.730                                  
  19178546.577   100783956.456                                  
  20561032.299   108048937.810                                  
                 100587083.337    19316697.720   100587083.337  
 19  2 18 11 52 22.9920000  0  6G24G 5G15E 8E30C25
  19820311.125   104156443.267                                  
  21552455.559   113258937.612                                  
  17984333.629    94508289.640                                  
  19178814.276   100785361.560                                  
  20560655.675   108046957.506                                  
                 100586227.588    19316533.409   100586227.588  
 19  2 18 11 52 23.9920000  0  6G24G 5G15E 8E30C25
  19819809.440   104153807.436                                  
  21553194.196   113262829.803                                  
  17984163.158    94507394.136                                  
  19179081.727   100786767.081                                  
  20560279.339   108044977.538                                  
                 100585372.245    19316369.124   100585372.245  
 19  2 18 11 52 24.9920000  0  6G24G 5G15E 8E30C25
  19819307.803   104151171.890                                  
  21553933.112   113266722.046                                  
  17983992.752    94506499.150                                  
  19179349.361   100788172.966                                  
  20559902.698   108042997.875                                  
                 100584517.274    19316205.428   100584517.274  
 19  2 18 11 52 25.9920000  0  6G24G 5G15E 8E30C25
  19818806.380   104148536.377                                  
  21554675.078   113270614.202                                  
  17983822.639    94505604.422                                  
  19179616.746   100789578.998                                  
  20559526.188   108041018.240                                  
                 100583662.418    19316041.095   100583662.418  
 19  2 18 11 52 26.9920000  0  6G24G 5G15E 8E30C25
  19818304.878   104145900.702                                  
  21555414.658   113274505.981                                  
  17983652.455    94504709.855                                  
  19179884.489   100790985.030                                  
  20559149.481   108039038.502                                  
                 100582807.554    19315876.893   100582807.554  
 19  2 18 11 52 27.9920000  0  6G24G 5G15E 8E30C25
  19817803.446   104143265.490                                  
  21556156.078   113278398.034                                  
  17983482.726    94503816.005                                  
  19180152.285   100792391.640                                  
  20558772.858   108037059.276                                  
                 100581953.277    19315713.018   100581953.277  
 19  2 18 11 52 28.9920000  0  6G24G 5G15E 8E30C25
  19817301.874   104140631.002                                  
  21556898.358   113282290.718                                  
  17983312.839    94502923.068                                  
  19180420.237   100793799.064                                  
  20558396.356   108035080.776                                  
                 100581099.792    19315549.025   100581099.792  
 19  2 18 11 52 29.9920000  0  7G24G 5G15E 8E30C25G28
  19816800.433   104137996.700                                  
  21557639.595   113286183.376                                  
  17983143.214    94502030.708                                  
  19180688.150   100795206.848                                  
  20558019.807   108033102.560                                  
                 100580246.652    19315385.276   100580246.652  
  19219518.713                                                  
 19  2 18 11 52 30.9920000  0  7G24G 5G15E 8E30C25G28
  19816299.320   104135362.857                                  
  21558379.149   113290076.359                                  
  17982973.515    94501139.069                                  
  19180956.203   100796615.234                                  
  20557643.235   108031124.816                                  
                 100579394.119    19315221.528   100579394.119  
  19219852.134                                                  
 19  2 18 11 52 31.9920000  0  7G24G 5G15E 8E30C25G28
  19815798.206   104132729.750                                  
  21559119.038   113293969.807                                  
  17982804.087    94500248.414                                  
  19181224.156   100798024.469                                  
  20557267.087   108029147.824                                  
                 100578542.409    19315057.910   100578542.409  
  19220191.833                                                  
 19  2 18 11 52 32.9920000  0  7G24G 5G15E 8E30C25G28
  19815297.071   104130096.758                                  
  21559859.254   113297863.238                                  
  17982634.859    94499358.080                                  
  19181492.165   100799433.930                                  
  20556890.839   108027171.000                                  
                 100577690.906    19314894.576   100577690.906  
  19220529.722                                                  
 19  2 18 11 52 33.9920000  0  7G24G 5G15E 8E30C25G28
  19814796.040   104127463.623                                  
  21560599.292   113301713.8813                                 
  17982465.487    94498467.943                                  
  19181760.471   100800843.401                                  
  20556514.341   108025194.101                                  
                 100576839.431    19314730.880   100576839.431  
  19220873.997                                                  
 19  2 18 11 52 34.9920000  0  7G24G 5G15E 8E30C25G28
  19814294.918   104124830.891                                  
  21561340.036   113305607.2712                                 
  17982296.290    94497578.472                                  
  19182028.994   100802253.370                                  
  20556137.966   108023217.617                                  
                 100575988.429    19314567.406   100575988.429  
  19221219.345                                                  
 19  2 18 11 52 35.9920000  0  7G24G 5G15E 8E30C25G28
  19813794.084   104122198.496                                  
  21562082.050   113309500.8112                                 
  17982127.066    94496689.610                                  
  19182297.671   100803663.853                                  
  20555761.761   108021241.523                                  
                 100575137.923    19314404.474   100575137.923  
  19221565.497                                                  
 19  2 18 11 52 36.9920000  0  7G24G 5G15E 8E30C25G28
  19813293.005   104119565.975                                  
  21562822.890   113313393.9452                                 
  17981957.690    94495800.845                                  
  19182565.846   100805074.277                                  
  20555385.897   108019265.307                                  
                 100574287.379    19314241.144   100574287.379  
  19221910.195                                                  
 19  2 18 11 52 37.9920000  0  7G24G 5G15E 8E30C25G28
  19812792.079   104116933.371                                  
  21563562.134   113317286.9742                                 
  17981788.589    94494912.322                                  
  19182834.047   100806484.822                                  
  20555009.753   108017289.121                                  
                 100573436.913    19314077.793   100573436.913  
  19222256.041                                                  
 19  2 18 11 52 38.9920000  0  6G24G 5G15E 8E30C25
  19812291.114   104114301.217                                  
  21564301.111   113321180.2462                                 
  17981619.719    94494024.516                                  
  19183102.453   100807895.936                                  
  20554633.810   108015313.391                                  
                 100572587.021    19313914.664   100572587.021  
 19  2 18 11 52 39.9920000  0  6G24G 5G15E 8E30C25
  19811790.144   104111669.277                                  
  21565043.186   113325073.4322                                 
  17981450.792    94493137.165                                  
  19183370.912   100809307.367                                  
  20554257.841   108013337.881                                  
                 100571737.419    19313751.631   100571737.419  
 19  2 18 11 52 40.9920000  0  6G24G 5G15E 8E30C25
  19811289.179   104109037.396                                  
  21565785.065   113328966.6582                                 
  17981282.075    94492250.192                                  
  19183639.580   100810718.998                                  
  20553882.046   108011362.522                                  
                 100570888.030    19313588.528   100570888.030  
 19  2 18 11 52 41.9920000  0  6G24G 5G15E 8E30C25
  19810788.406   104106405.642                                  
  21566527.122   113332859.7472                                 
  17981113.479    94491363.567                                  
  19183908.531   100812130.875                                  
  20553506.364   108009387.282                                  
                 100570038.868    19313425.381   100570038.868  
 19  2 18 11 52 42.9920000  0  6G24G 5G15E 8E30C25
  19810287.550   104103773.759                                  
  21567267.596   113336752.1331                                 
  17980944.854    94490477.104                                  
  19184177.448   100813542.754                                  
  20553130.347   108007411.973                                  
                 100569189.699    19313262.265   100569189.699  
 19  2 18 11 52 43.9920000  0  6G24G 5G15E 8E30C25
  19809786.759   104101141.883                                  
  21568008.558   113340644.769                                  
  17980776.031    94489590.932                                  
  19184446.190   100814954.758                                  
  20552754.378   108005436.690                                  
                 100568340.663    19313099.115   100568340.663  
 19  2 18 11 52 44.9920000  0  6G24G 5G15E 8E30C25
  19809285.964   104098510.414                                  
  21568748.853   113344537.528                                  
  17980607.353    94488705.371                                  
  19184714.949   100816367.278                                  
  20552378.457   108003461.818                                  
                 100567492.090    19312936.095   100567492.090  
 19  2 18 11 52 45.9920000  0  6G24G 5G15E 8E30C25
  19808785.374   104095879.021                                  
  21569490.924   113348430.258                                  
  17980438.832    94487820.105                                  
  19184983.761   100817779.932                                  
  20552002.404   108001487.026                                  
                 100566643.680    19312773.515   100566643.680  
 19  2 18 11 52 46.9920000  0  6G24G 5G15E 8E30C25
  19808284.806   104093247.464                                  
  21570228.078   113352322.660                                  
  17980270.058    94486935.004                                  
  19185252.547   100819192.594                                  
  20551626.518   107999512.154                                  
                 100565795.278    19312610.722   100565795.278  
 19  2 18 11 52 47.9920000  0  6G24G 5G15E 8E30C25
  19807784.098   104090616.599                                  
  21570970.676   113356215.518                                  
  17980101.450    94486050.856                                  
  19185521.119   100820606.080                                  
  20551251.068   107997538.018                                  
                 100564947.670    19312448.082   100564947.670  
 19  2 18 11 52 48.9920000  0  6G24G 5G15E 8E30C25
  19807283.560   104087985.682                                  
  21571711.145   113360108.258                                  
  17979933.356    94485166.936                                  
  19185790.184   100822019.653                                  
  20550875.247   107995563.851                                  
                 100564100.143    19312284.927   100564100.143  
 19  2 18 11 52 49.9920000  0  6G24G 5G15E 8E30C25
  19806782.948   104085354.816                                  
  21572451.968   113364000.854                                  
  17979765.249    94484283.376                                  
  19186059.175   100823433.432                                  
  20550499.421   107993589.823                                  
                 100563252.817    19312122.265   100563252.817  
 19  2 18 11 52 50.9920000  0  6G24G 5G15E 8E30C25
  19806282.184   104082723.944                                  
  21573192.359   113367893.136                                  
  17979597.007    94483400.011                                  
  19186327.917   100824847.290                                  
  20550124.163   107991615.798                                  
                 100562405.550    19311959.764   100562405.550  
 19  2 18 11 52 51.9920000  0  6G24G 5G15E 8E30C25
  19805781.402   104080092.940                                  
  21573935.416   113371785.220                                  
  17979428.953    94482516.837                                  
  19186597.130   100826261.177                                  
  20549749.167   107989641.677                                  
                 100561558.316    19311796.988   100561558.316  
 19  2 18 11 52 52.9920000  0  6G24G 5G15E 8E30C25
  19805280.559   104077461.973                                  
  21574677.203   113375677.125                                  
  17979260.860    94481633.908                                  
  19186866.147   100827675.184                                  
  20549373.385   107987667.597                                  
                 100560711.212    19311634.291   100560711.212  
 19  2 18 11 52 53.9920000  0  6G24G 5G15E 8E30C25
  19804779.799   104074830.980                                  
  21575418.370   113379568.878                                  
  17979092.814    94480751.297                                  
  19187134.850   100829089.325                                  
  20548997.712   107985693.575                                  
                 100559864.208    19311471.664   100559864.208  
 19  2 18 11 52 54.9920000  0  6G24G 5G15E 8E30C25
  19804279.073   104072200.189                                  
  21576159.053   113383460.610                                  
  17978924.816    94479869.113                                  
  19187404.185   100830503.778                                  
  20548622.411   107983719.782                                  
                 100559017.499    19311309.093   100559017.499  
 19  2 18 11 52 55.9920000  0  6G24G 5G15E 8E30C25
  19803778.749   104069569.386                                  
  21576899.745   113387352.200                                  
  17978756.862    94478987.242                                  
  19187673.115   100831918.410                                  
  20548246.598   107981746.050                                  
                 100558170.979    19311146.671   100558170.979  
 19  2 18 11 52 56.9920000  0  6G24G 5G15E 8E30C25
  19803278.177   104066938.936                                  
  21577639.800   113391243.988                                  
  17978589.231    94478105.950                                  
  19187942.502   100833333.466                                  
  20547870.878   107979772.680                                  
                 100557324.883    19310984.222   100557324.883  
 19  2 18 11 52 57.9920000  0  6G24G 5G15E 8E30C25
  19802777.552   104064309.020                                  
  21578380.226   113395136.043                                  
  17978421.391    94477225.449                                  
  19188212.043   100834749.171                                  
  20547495.689   107977799.839                                  
                 100556479.392    19310822.018   100556479.392  
 19  2 18 11 52 58.9920000  0  6G24G 5G15E 8E30C25
  19802276.910   104061679.589                                  
  21579121.001   113399028.460                                  
  17978254.012    94476345.721                                  
  19188481.522   100836165.544                                  
  20547120.614   107975827.597                                  
                 100555634.581    19310659.875   100555634.581  
 19  2 18 11 52 59.9920000  0  6G24G 5G15E 8E30C25
  19801776.529   104059050.426                                  
  21579861.758   113402921.007                                  
  17978086.800    94475466.581                                  
  19188751.132   100837582.288                                  
  20546745.696   107973855.642                                  
                 100554790.142    19310497.475   100554790.142  
 19  2 18 11 53  0.9920000  0  6G24G 5G15E 8E30C25
  19801276.414   104056421.467                                  
  21580602.616   113406813.548                                  
  17977919.736    94474587.943                                  
  19189020.904   100838999.411                                  
  20546370.800   107971883.955                                  
                 100553946.034    19310335.484   100553946.034  
 19  2 18 11 53  1.9920000  0  6G24G 5G15E 8E30C25
  19800776.121   104053792.733                                  
  21581343.286   113410706.159                                  
  17977752.476    94473709.747                                  
  19189290.431   100840416.870                                  
  20545995.586   107969912.539                                  
                 100553102.279    19310173.459   100553102.279  
 19  2 18 11 53  2.9920000  0  6G24G 5G15E 8E30C25
  19800275.863   104051164.447                                  
  21582084.458   113414598.992                                  
  17977585.351    94472832.243                                  
  19189560.382   100841834.872                                  
  20545620.676   107967941.590                                  
                 100552259.042    19310011.582   100552259.042  
 19  2 18 11 53  3.9920000  0  6G24G 5G15E 8E30C25
  19799775.805   104048536.389                                  
  21582825.451   113418491.877                                  
  17977418.483    94471955.269                                  
  19189830.110   100843253.233                                  
  20545245.375   107965970.870                                  
                 100551416.151    19309850.002   100551416.151  
 19  2 18 11 53  4.9920000  0  6G24G 5G15E 8E30C25
  19799275.673   104045908.384                                  
  21583566.344   113422384.607                                  
  17977251.624    94471078.598                                  
  19190100.204   100844671.781                                  
  20544870.404   107964000.276                                  
                 100550573.470    19309688.029   100550573.470  
 19  2 18 11 53  5.9920000  0  6G24G 5G15E 8E30C25
  19798775.515   104043280.385                                  
  21584307.293   113426277.304                                  
  17977084.905    94470202.233                                  
  19190370.107   100846090.466                                  
  20544495.308   107962029.724                                  
                 100549730.892    19309525.912   100549730.892  
 19  2 18 11 53  6.9920000  0  6G24G 5G15E 8E30C25
  19798275.592   104040652.594                                  
  21585047.989   113430169.847                                  
  17976918.233    94469326.212                                  
  19190640.097   100847509.405                                  
  20544120.281   107960059.328                                  
                 100548888.530    19309363.865   100548888.530  
 19  2 18 11 53  7.9920000  0  6G24G 5G15E 8E30C25
  19797775.739   104038024.697                                  
  21585788.563   113434062.182                                  
  17976751.627    94468450.480                                  
  19190909.925   100848928.401                                  
  20543745.275   107958088.913                                  
                 100548046.270    19309201.958   100548046.270  
 19  2 18 11 53  8.9920000  0  6G24G 5G15E 8E30C25
  19797275.642   104035397.015                                  
  21586529.534   113437954.559                                  
  17976585.205    94467575.215                                  
  19191179.954   100850347.784                                  
  20543370.139   107956118.760                                  
                 100547204.362    19309040.334   100547204.362  
 19  2 18 11 53  9.9920000  0  6G24G 5G15E 8E30C25
  19796775.733   104032769.878                                  
  21587270.314   113441847.323                                  
  17976418.804    94466700.749                                  
  19191450.219   100851767.797                                  
  20542995.335   107954149.201                                  
                 100546363.114    19308878.793   100546363.114  
 19  2 18 11 53 10.9920000  0  6G24G 5G15E 8E30C25
  19796275.915   104030143.492                                  
  21588011.158   113445740.647                                  
  17976252.551    94465827.307                                  
  19191720.885   100853188.701                                  
  20542620.635   107952180.451                                  
                 100545522.675    19308717.382   100545522.675  
 19  2 18 11 53 11.9920000  0  6G24G 5G15E 8E30C25
  19795776.250   104027517.602                                  
  21588752.112   113449634.209                                  
  17976086.621    94464954.617                                  
  19191991.289   100854610.221                                  
  20542246.197   107950212.168                                  
                 100544682.856    19308556.430   100544682.856  
 19  2 18 11 53 12.9920000  0  6G24G 5G15E 8E30C25
  19795276.545   104024891.811                                  
  21589493.183   113453527.748                                  
  17975920.735    94464082.291                                  
  19192262.007   100856031.944                                  
  20541871.558   107948244.039                                  
                 100543843.275    19308395.230   100543843.275  
 19  2 18 11 53 13.9920000  0  6G24G 5G15E 8E30C25
  19794777.133   104022266.260                                  
  21590234.207   113457421.306                                  
  17975754.823    94463210.488                                  
  19192532.721   100857454.007                                  
  20541497.098   107946276.151                                  
                 100543004.002    19308233.937   100543004.002  
 19  2 18 11 53 14.9920000  0  6G24G 5G15E 8E30C25
  19794277.852   104019641.195                                  
  21590976.757   113461315.558                                  
  17975588.884    94462339.430                                  
  19192803.383   100858876.756                                  
  20541122.534   107944308.938                                  
                 100542165.388    19308072.942   100542165.388  
 19  2 18 11 53 15.9920000  0  6G24G 5G15E 8E30C25
  19793778.776   104017016.633                                  
  21591718.051   113465243.3753                                 
  17975423.513    94461469.117                                  
  19193074.127   100860300.079                                  
  20540748.109   107942342.087                                  
                 100541327.329    19307912.059   100541327.329  
 19  2 18 11 53 16.9920000  0  6G24G 5G15E 8E30C25
  19793279.001   104014391.925                                  
  21592456.274                                                  
  17975257.596                                                  
  19193345.051   100861723.312                                  
  20540373.540   107940375.402                                  
                 100540489.192    19307750.828   100540489.192  
 19  2 18 11 53 17.9920000  0  6G24G 5G15E 8E30C25
  19792779.677   104011759.1923                                 
  21593194.239   113473000.8212                                 
  17975096.465                                                  
  19193616.109   100863146.648                                  
  20539999.377   107938409.058                                  
                 100539651.190    19307590.081   100539651.190  
 19  2 18 11 53 18.9920000  0  6G24G 5G15E 8E30C25
  19792277.743                                                  
  21593936.620   113476901.8743                                 
  17974931.020    94458899.2133                                 
  19193881.361   100864569.721                                  
  20539624.625   107936442.103                                  
                 100538813.184    19307431.210   100538813.184  
 19  2 18 11 53 19.9920000  0  6G24G 5G15E 8E30C25
  19791785.655   104006535.5603                                 
  21594678.991   113480794.4702                                 
  17974765.090                                                  
  19194151.717   100865993.089                                  
  20539250.283   107934474.800                                  
                 100537975.221    19307269.119   100537975.221  
 19  2 18 11 53 20.9920000  0  6G24G 5G15E 8E30C25
  19791287.386                                                  
  21595417.650   113484687.3472                                 
  17974597.760                                                  
  19194425.887   100867416.762                                  
  20538875.836   107932507.998                                  
                 100537137.726    19307107.399   100537137.726  
 19  2 18 11 53 21.9920000  0  6G24G 5G15E 8E30C25
  19790782.887                                                  
  21596152.278                                                  
  17974435.665    94456296.5242                                 
  19194704.772                                                  
  20538500.970   107930541.603                                  
                                  19306946.892                  
 19  2 18 11 53 22.9920000  0  6G24G 5G15E 8E30C25
  19790282.337                                                  
  21596897.088                                                  
  17974270.682                                                  
  19194980.158                                                  
  20538125.463                                                  
                                  19306792.462                  
 19  2 18 11 53 23.9920000  0  6G24G 5G15E 8E30C25
  19789783.073                                                  
  21597639.613                                                  
  17974107.780                                                  
  19195252.595                                                  
  20537755.855                                                  
                                  19306633.137                  
 19  2 18 11 53 24.9920000  0  6G24G 5G15E 8E30C25
  19789286.125                                                  
  21598379.576                                                  
  17973944.424                                                  
  19195525.717                                                  
  20537378.188                                                  
                                  19306473.459                  
 19  2 18 11 53 25.9920000  0  5G24G 5G15E30C25
  19788791.233                                                  
  21599116.612                                                  
  17973782.525                                                  
  20537008.497                                                  
                                  19306318.034                  
 19  2 18 11 53 26.9920000  0  4G24G 5G15C25
  19788290.735                                                  
  21599857.055                                                  
  17973621.015                                                  
                                  19306156.925                  
 19  2 18 11 53 27.9920000  0  4G24G 5G15C25
  19787791.449                                                  
  21600597.935                                                  
  17973457.353                                                  
                                  19305996.235                  
 19  2 18 11 53 28.9920000  0  3G24G15C25
  19787293.092                                                  
  17973298.268                                                  
                                  19305835.222                  
 19  2 18 11 53 29.9920000  0  2G15C25
  17973134.520                                                  
                                  19305673.694                  
 19  2 18 11 53 30.9920000  0  2G15C25
  17972970.274                                                  
                                  19305513.444                  
 19  2 18 11 53 31.9920000  0  2G15C25
  17972807.507                                                  
                                  19305355.149                  
 19  2 18 11 53 32.9920000  0  2G15C25
  17972642.773                                                  
                                  19305197.377                  
 19  2 18 11 53 33.9920000  0  4G24G 5G15C25
  19784696.496                                                  
  21605047.400                                                  
  17972478.392                                                  
                                  19305037.638                  
 19  2 18 11 53 34.9920000  0  4G24G 5G15C25
  19784175.009                                                  
  21605792.847                                                  
  17972313.897                                                  
                                  19304879.286                  
 19  2 18 11 53 35.9920000  0  4G24G 5G15C25
  19783645.783                                                  
  21606539.088                                                  
  17972154.014                                                  
                                  19304719.935                  
 19  2 18 11 53 36.9920000  0  4G24G 5G15C25
  19783124.484                                                  
  21607276.247                                                  
  17971995.121                                                  
                                  19304560.230                  
 19  2 18 11 53 37.9920000  0  3G24G 5C25
  19782607.561                                                  
  21608012.227                                                  
                                  19304397.476                  
 19  2 18 11 53 38.9920000  0  2G24G 5
  19782086.427                                                  
  21608754.764                                                  
 19  2 18 11 53 39.9920000  0  3G24G 5G15
  19781548.119                                                  
  21609494.994                                                  
  17971535.805                                                  
 19  2 18 11 53 40.9920000  0  2G24G15
  19781009.670                                                  
  17971380.751                                                  
 19  2 18 11 53 41.9920000  0  3G24G 5G15
  19780465.647                                                  
  21610977.713                                                  
  17971229.104                                                  
 19  2 18 11 53 42.9920000  0  5G24G28G 5G15C25
  19779920.018                                                  
  19243706.538                                                  
  21611719.094                                                  
  17971074.727                                                  
                                  19303581.460                  
 19  2 18 11 53 43.9920000  0  5G24G28G 5G15C25
  19779379.877                                                  
  19244049.387                                                  
  21612459.786                                                  
  17970925.588                                                  
                                  19303415.666                  
 19  2 18 11 53 44.9920000  0  3G24G28G 5
  19778840.373                                                  
  19244392.332                                                  
  21613197.956                                                  
 19  2 18 11 53 45.9920000  0  3G24G28G 5
  19778299.010                                                  
  19244736.594                                                  
  21613937.902                                                  
 19  2 18 11 53 46.9920000  0  2G28G 5
  19245078.945                                                  
  21614680.344                                                  
 19  2 18 11 53 47.9920000  0  2G28G 5
  19245412.615                                                  
  21615419.827                                                  
 19  2 18 11 53 48.9920000  0  3G28G 5C25
  19245744.994                                                  
  21616160.842                                                  
                                  19302609.937                  
 19  2 18 11 53 49.9920000  0  4G24G28G 5C25
  19776846.201                                                  
  19246071.383                                                  
  21616901.595                                                  
                                  19302450.961                  
 19  2 18 11 53 50.9920000  0  4G24G28G 5C25
  19776341.519                                                  
  19246396.712                                                  
  21617643.692                                                  
                                  19302293.360                  
 19  2 18 11 53 51.9920000  0  4G24G28G 5C25
  19775841.945                                                  
  19246721.159                                                  
  21618384.746                                                  
                                  19302134.567                  
 19  2 18 11 53 52.9920000  0  4G24G28G 5C25
  19775346.433                                                  
  19247051.291                                                  
  21619125.363   113609270.3833                                 
                                  19301978.034                  
 19  2 18 11 53 53.9920000  0  5G24G28G 5G15C25
  19774842.087                                                  
  19247377.017                                                  
  21619868.328                                                  
  17969004.847                                                  
                                  19301817.278                  
 19  2 18 11 53 54.9920000  0  5G24G28G 5G15C25
  19774341.489                                                  
  19247699.034                                                  
  21620613.378                                                  
  17968855.535                                                  
                                  19301653.094                  
 19  2 18 11 53 55.9920000  0  5G24G28G 5G15C25
  19773838.866                                                  
  19248008.579                                                  
  21621349.158                                                  
  17968703.063                                                  
                                  19301491.579                  
 19  2 18 11 53 56.9920000  0  5G24G28G 5G15C25
  19773341.648                                                  
  19248313.745                                                  
  21622092.105   113624860.6602                                 
  17968540.100                                                  
                                  19301331.059                  
 19  2 18 11 53 57.9920000  0  5G24G28G 5G15C25
  19772844.046                                                  
  19248613.439                                                  
  21622837.491                                                  
  17968377.381                                                  
                                  19301171.581                  
 19  2 18 11 53 58.9920000  0  4G28G 5G15C25
  19248906.206                                                  
  21623582.005                                                  
  17968218.981                                                  
                                  19301012.173                  
 19  2 18 11 53 59.9920000  0  4G28G 5G15C25
  19249194.448                                                  
  21624324.481                                                  
  17968067.238                                                  
                                  19300855.745                  
 19  2 18 11 54  0.9920000  0  4G28G 5G15C25
  19249477.905                                                  
  21625064.458   113640480.6843                                 
  17967913.677                                                  
                                  19300699.561                  
 19  2 18 11 54  1.9920000  0  4G28G 5G15C25
  19249758.553                                                  
  21625804.770   113644377.2162                                 
  17967752.127                                                  
                                  19300540.551                  
 19  2 18 11 54  2.9920000  0  4G28G 5G15C25
  19250037.045                                                  
  21626546.121   113648274.4012                                 
  17967596.192                                                  
                                  19300382.988                  
 19  2 18 11 54  3.9920000  0  4G28G 5G15C25
  19250297.036                                                  
  21627287.786   113652171.7822                                 
  17967456.686                                                  
                                  19300227.620                  
 19  2 18 11 54  4.9920000  0  4G28G 5G15C25
  19250546.648                                                  
  21628030.445   113656069.6452                                 
  17967307.604                                                  
                                  19300069.290                  
 19  2 18 11 54  5.9920000  0  4G28G 5G15C25
  19250793.377                                                  
  21628773.235   113659968.5352                                 
  17967149.689                                                  
                                  19299911.889                  
 19  2 18 11 54  6.9920000  0  6G24G28G 5G15E30C25
  19768344.294                                                  
  19251030.735                                                  
  21629517.657   113663881.6933                                 
  17966999.377                                                  
  20521716.186   107842356.0061                                 
                                  19299754.990                  
 19  2 18 11 54  7.9920000  0  6G24G28G 5G15E30C25
  19767850.047                                                  
  19251258.613                                                  
  21630258.210   113667780.0442                                 
  17966843.132                                                  
  20521347.681   107840404.850                                  
                                  19299597.074                  
 19  2 18 11 54  8.9920000  0  6G24G28G 5G15E30C25
  19767357.554                                                  
  19251482.809                                                  
  21631001.995   113671678.1292                                 
  17966680.496                                                  
  20520975.677   107838453.629                                  
                                  19299438.299                  
 19  2 18 11 54  9.9920000  0  6G24G28G 5G15E30C25
  19766861.762                                                  
  19251706.438                                                  
  21631745.644   113675576.2092                                 
  17966518.702                                                  
  20520604.293   107836502.621                                  
                                  19299282.425                  
 19  2 18 11 54 10.9920000  0  5G24G 5G15E30C25
  19766370.155                                                  
  21632484.831   113679474.5162                                 
  17966361.628                                                  
  20520233.576   107834552.145                                  
                                  19299126.743                  
 19  2 18 11 54 11.9920000  0  4G24G 5G15C25
  19765868.208                                                  
  21633225.248   113683373.2302                                 
  17966204.799                                                  
                                  19298971.584                  
 19  2 18 11 54 12.9920000  0  4G24G 5G15C25
  19765370.454                                                  
  21633967.035   113687271.9262                                 
  17966047.515                                                  
                                  19298816.609                  
 19  2 18 11 54 13.9920000  0  5G24G 5G15E30C25
  19764876.800                                                  
  21634708.203   113691170.2672                                 
  17965888.697                                                  
  20519121.910   107828723.7681                                 
                                  19298663.016                  
 19  2 18 11 54 14.9920000  0  5G24G 5G15E30C25
  19764379.949                                                  
  21635448.860   113695068.9462                                 
  17965735.684                                                  
  20518749.592   107826774.343                                  
                                  19298508.730                  
 19  2 18 11 54 15.9920000  0  4G24G 5G15C25
  19763884.480                                                  
  21636190.874   113698967.7542                                 
  17965580.622                                                  
                                  19298353.541                  
 19  2 18 11 54 16.9920000  0  4G 5G15E30C25
  21636933.145   113702867.3152                                 
  17965423.592                                                  
  20518007.369   107822866.5111                                 
                                  19298197.981                  
 19  2 18 11 54 17.9920000  0  5G28G 5G15E30C25
  19257306.932                                                  
  21637674.168                                                  
  17965266.387                                                  
  20517635.701   107820918.858                                  
                                  19298041.191                  
 19  2 18 11 54 18.9920000  0  5G28G 5G15E30C25
  19257673.570                                                  
  21638414.171                                                  
  17965110.744                                                  
  20517264.369   107818971.672                                  
                                  19297884.562                  
 19  2 18 11 54 19.9920000  0  5G28G 5G15E30C25
  19258027.177                                                  
  21639155.884                                                  
  17964952.065                                                  
  20516894.669   107817024.805                                  
                                  19297728.243                  
 19  2 18 11 54 20.9920000  0  5G28G 5G15E30C25
  19258375.496                                                  
  21639898.513   113718433.5693                                 
  17964794.751                                                  
  20516521.514   107815078.745                                  
                                  19297571.837                  
 19  2 18 11 54 21.9920000  0  4G28G 5G15E30
  19258720.217                                                  
  21640637.713   113722334.1222                                 
  17964637.991                                                  
  20516151.111   107813133.038                                  
 19  2 18 11 54 22.9920000  0  4G28G 5G15E30
  19259071.956                                                  
  21641380.481   113726234.6702                                 
  17964483.042                                                  
  20515781.506   107811187.492                                  
 19  2 18 11 54 23.9920000  0  5G28G 5G15E30C25
  19259425.856                                                  
  21642123.040   113730135.5142                                 
  17964326.012                                                  
  20515411.806   107809242.342                                  
                                  19297101.292                  
 19  2 18 11 54 24.9920000  0  4G28G 5E30C25
  19259786.189                                                  
  21642865.665                                                  
  20515039.506   107807297.908                                  
                                  19296945.178                  
 19  2 18 11 54 25.9920000  0  4G28G 5E30C25
  19260144.172                                                  
  21643609.223                                                  
  20514670.931   107805353.926                                  
                                  19296789.897                  
 19  2 18 11 54 26.9920000  0  4G28G 5E30C25
  19260506.744                                                  
  21644353.688   113741846.0463                                 
  20514297.802   107803410.081                                  
                                  19296635.100                  
 19  2 18 11 54 27.9920000  0  3G 5E30C25
  21645096.392   113745747.3562                                 
  20513929.842   107801466.381                                  
                                  19296477.739                  
 19  2 18 11 54 28.9920000  0  3G 5E30C25
  21645838.536                                                  
  20513560.975                                                  
                                  19296325.062                  
 19  2 18 11 54 29.9920000  0  3G 5E30C25
  21646581.300   113753552.0013                                 
  20513190.873                                                  
                                  19296173.477                  
 19  2 18 11 54 30.9920000  0  3G 5E30C25
  21647323.257                                                  
  20512821.688                                                  
                                  19296019.348                  
 19  2 18 11 54 31.9920000  0  4G28G 5E30C25
  19262331.107                                                  
  21648062.244                                                  
  20512452.733                                                  
                                  19295865.171                  
 19  2 18 11 54 32.9920000  0  4G28G 5E30C25
  19262695.542                                                  
  21648804.310                                                  
  20512082.126                                                  
                                  19295711.277                  
 19  2 18 11 54 33.9920000  0  3G28G 5C25
  19263062.878                                                  
  21649547.279                                                  
                                  19295560.350                  
 19  2 18 11 54 34.9920000  0  3G28G 5C25
  19263434.786                                                  
  21650289.258                                                  
                                  19295406.308                  
 19  2 18 11 54 35.9920000  0  3G28G 5C25
  19263810.354                                                  
  21651032.790                                                  
                                  19295252.458                  
 19  2 18 11 54 36.9920000  0  3G28G 5C25
  19264185.437                                                  
  21651776.283                                                  
                                  19295099.355                  
 19  2 18 11 54 37.9920000  0  4G28G 5E30C25
  19264558.872                                                  
  21652519.186   113784756.2173                                 
  20510231.827                                                  
                                  19294945.243                  
 19  2 18 11 54 38.9920000  0  4G28G 5E30C25
  19264932.097                                                  
  21653264.154                                                  
  20509861.603                                                  
                                  19294790.189                  
 19  2 18 11 54 39.9920000  0  5G24G28G 5E30C25
  19752007.949                                                  
  19265305.253                                                  
  21654006.372                                                  
  20509492.156                                                  
                                  19294635.380                  
 19  2 18 11 54 40.9920000  0  5G24G28G 5E30C25
  19751509.990                                                  
  19265679.564                                                  
  21654747.937                                                  
  20509123.712                                                  
                                  19294479.401                  
 19  2 18 11 54 41.9920000  0  5G24G28G 5E30C25
  19751016.057                                                  
  19266057.929                                                  
  21655491.063                                                  
  20508754.465                                                  
                                  19294324.652                  
 19  2 18 11 54 42.9920000  0  5G24G28G 5E30C25
  19750523.141                                                  
  19266457.046                                                  
  21656233.914                                                  
  20508386.270                                                  
                                  19294170.624                  
 19  2 18 11 54 43.9920000  0  5G24G28G 5E30C25
  19750026.582                                                  
  19266859.653                                                  
  21656977.377                                                  
  20508018.829                                                  
                                  19294017.066                  
 19  2 18 11 54 44.9920000  0  5G24G28G 5E30C25
  19749535.179                                                  
  19267261.536                                                  
  21657719.914                                                  
  20507651.856                                                  
                                  19293861.611                  
 19  2 18 11 54 45.9920000  0  5G24G28G 5E30C25
  19749040.208                                                  
  19267663.113                                                  
  21658461.060                                                  
  20507281.846                                                  
                                  19293706.657                  
 19  2 18 11 54 46.9920000  0  5G24G28G 5E30C25
  19748545.329                                                  
  19268056.973                                                  
  21659205.394                                                  
  20506914.100                                                  
                                  19293550.665                  
 19  2 18 11 54 47.9920000  0  5G24G28G 5E30C25
  19748050.580                                                  
  19268446.488                                                  
  21659950.414                                                  
  20506545.298                                                  
                                  19293396.466                  
 19  2 18 11 54 48.9920000  0  4G28G 5E30C25
  19268834.852                                                  
  21660692.873                                                  
  20506177.190                                                  
                                  19293244.135                  
 19  2 18 11 54 49.9920000  0  4G28G 5E30C25
  19269223.141                                                  
  21661438.896                                                  
  20505808.991                                                  
                                  19293088.082                  
 19  2 18 11 54 50.9920000  0  4G28G 5E30C25
  19269611.351                                                  
  21662183.784                                                  
  20505442.903                                                  
                                  19292934.005                  
 19  2 18 11 54 51.9920000  0  4G28G 5E30C25
  19269999.963                                                  
  21662926.972                                                  
  20505076.234                                                  
                                  19292780.740                  
 19  2 18 11 54 52.9920000  0  3G 5E30C25
  21663669.391                                                  
  20504708.244                                                  
                                  19292630.271                  
 19  2 18 11 54 53.9920000  0  2G 5C25
  21664411.784                                                  
                                  19292476.465                  
 19  2 18 11 54 54.9920000  0  2G 5C25
  21665157.899                                                  
                                  19292324.635                  
 19  2 18 11 54 55.9920000  0  3G 5G15C25
  21665901.274                                                  
  17959513.918                                                  
                                  19292173.970                  
 19  2 18 11 54 56.9920000  0  3G 5G15C25
  21666642.219                                                  
  17959392.840                                                  
                                  19292020.630                  
 19  2 18 11 54 57.9920000  0  2G 5C25
  21667384.076                                                  
                                  19291865.380                  
 19  2 18 11 54 58.9920000  0  2G 5C25
  21668128.934                                                  
                                  19291712.215                  
 19  2 18 11 54 59.9920000  0  2G 5C25
  21668873.940                                                  
                                  19291558.640                  
 19  2 18 11 55  0.9920000  0  2G 5C25
  21669616.997                                                  
                                  19291404.685                  
 19  2 18 11 55  1.9920000  0  4G28G 5G15C25
  19271522.115                                                  
  21670359.656                                                  
  17958212.459                                                  
                                  19291253.981                  
 19  2 18 11 55  2.9920000  0  4G28G 5G15C25
  19271899.428                                                  
  21671102.364                                                  
  17958062.012                                                  
                                  19291100.895                  
 19  2 18 11 55  3.9920000  0  4G28G 5G15C25
  19272264.517                                                  
  21671848.195                                                  
  17957902.722                                                  
                                  19290949.082                  
 19  2 18 11 55  4.9920000  0  4G28G 5G15C25
  19272634.466                                                  
  21672589.689                                                  
  17957739.702                                                  
                                  19290798.312                  
